{
  "_note": "Curated major airports extracted from durhack2025 codes.csv (real IATA coordinates). Used by the meeting optimizer to score candidate meeting cities with flight-grounded travel/CO2.",
  "airports": [
    { "iata": "ZRH", "city": "Zürich", "country": "Switzerland", "country_code": "CH", "lat": 47.4647, "lng": 8.5492 },
    { "iata": "GVA", "city": "Geneva", "country": "Switzerland", "country_code": "CH", "lat": 46.2381, "lng": 6.109 },
    { "iata": "BSL", "city": "Basel", "country": "Switzerland", "country_code": "CH", "lat": 47.59, "lng": 7.5292 },
    { "iata": "BRN", "city": "Bern", "country": "Switzerland", "country_code": "CH", "lat": 46.9141, "lng": 7.4972 },
    { "iata": "LHR", "city": "London", "country": "United Kingdom", "country_code": "GB", "lat": 51.4775, "lng": -0.4614 },
    { "iata": "LGW", "city": "London (Gatwick)", "country": "United Kingdom", "country_code": "GB", "lat": 51.1481, "lng": -0.1903 },
    { "iata": "FRA", "city": "Frankfurt", "country": "Germany", "country_code": "DE", "lat": 50.0333, "lng": 8.5706 },
    { "iata": "MUC", "city": "Munich", "country": "Germany", "country_code": "DE", "lat": 48.3538, "lng": 11.7861 },
    { "iata": "CDG", "city": "Paris", "country": "France", "country_code": "FR", "lat": 49.0097, "lng": 2.5478 },
    { "iata": "AMS", "city": "Amsterdam", "country": "Netherlands", "country_code": "NL", "lat": 52.3086, "lng": 4.7639 },
    { "iata": "MXP", "city": "Milan", "country": "Italy", "country_code": "IT", "lat": 45.6306, "lng": 8.7281 },
    { "iata": "LIN", "city": "Milan (Linate)", "country": "Italy", "country_code": "IT", "lat": 45.4494, "lng": 9.2783 },
    { "iata": "FCO", "city": "Rome", "country": "Italy", "country_code": "IT", "lat": 41.8003, "lng": 12.2389 },
    { "iata": "LIS", "city": "Lisbon", "country": "Portugal", "country_code": "PT", "lat": 38.7813, "lng": -9.1359 },
    { "iata": "MAD", "city": "Madrid", "country": "Spain", "country_code": "ES", "lat": 40.4719, "lng": -3.5626 },
    { "iata": "BCN", "city": "Barcelona", "country": "Spain", "country_code": "ES", "lat": 41.2971, "lng": 2.0785 },
    { "iata": "VIE", "city": "Vienna", "country": "Austria", "country_code": "AT", "lat": 48.1103, "lng": 16.5697 },
    { "iata": "BRU", "city": "Brussels", "country": "Belgium", "country_code": "BE", "lat": 50.9014, "lng": 4.4844 },
    { "iata": "DUB", "city": "Dublin", "country": "Ireland", "country_code": "IE", "lat": 53.4213, "lng": -6.2701 },
    { "iata": "CPH", "city": "Copenhagen", "country": "Denmark", "country_code": "DK", "lat": 55.6179, "lng": 12.656 },
    { "iata": "BOS", "city": "Boston", "country": "United States", "country_code": "US", "lat": 42.3643, "lng": -71.0052 },
    { "iata": "JFK", "city": "New York", "country": "United States", "country_code": "US", "lat": 40.6397, "lng": -73.7789 },
    { "iata": "EWR", "city": "Newark", "country": "United States", "country_code": "US", "lat": 40.6925, "lng": -74.1686 },
    { "iata": "ORD", "city": "Chicago", "country": "United States", "country_code": "US", "lat": 41.9786, "lng": -87.9047 },
    { "iata": "SFO", "city": "San Francisco", "country": "United States", "country_code": "US", "lat": 37.619, "lng": -122.375 },
    { "iata": "LAX", "city": "Los Angeles", "country": "United States", "country_code": "US", "lat": 33.9425, "lng": -118.408 },
    { "iata": "IAD", "city": "Washington", "country": "United States", "country_code": "US", "lat": 38.9445, "lng": -77.4558 },
    { "iata": "MIA", "city": "Miami", "country": "United States", "country_code": "US", "lat": 25.7932, "lng": -80.2906 },
    { "iata": "GRU", "city": "São Paulo", "country": "Brazil", "country_code": "BR", "lat": -23.4322, "lng": -46.4692 },
    { "iata": "GIG", "city": "Rio de Janeiro", "country": "Brazil", "country_code": "BR", "lat": -22.81, "lng": -43.2506 },
    { "iata": "LIM", "city": "Lima", "country": "Peru", "country_code": "PE", "lat": -12.0219, "lng": -77.1143 },
    { "iata": "SCL", "city": "Santiago", "country": "Chile", "country_code": "CL", "lat": -33.3928, "lng": -70.7856 },
    { "iata": "EZE", "city": "Buenos Aires", "country": "Argentina", "country_code": "AR", "lat": -34.8222, "lng": -58.5358 },
    { "iata": "BOG", "city": "Bogotá", "country": "Colombia", "country_code": "CO", "lat": 4.7016, "lng": -74.1469 },
    { "iata": "SIN", "city": "Singapore", "country": "Singapore", "country_code": "SG", "lat": 1.3502, "lng": 103.994 },
    { "iata": "HKG", "city": "Hong Kong", "country": "Hong Kong", "country_code": "HK", "lat": 22.3089, "lng": 113.915 },
    { "iata": "DXB", "city": "Dubai", "country": "United Arab Emirates", "country_code": "AE", "lat": 25.2528, "lng": 55.3644 },
    { "iata": "NRT", "city": "Tokyo", "country": "Japan", "country_code": "JP", "lat": 35.7653, "lng": 140.386 },
    { "iata": "DEL", "city": "Delhi", "country": "India", "country_code": "IN", "lat": 28.5665, "lng": 77.1031 },
    { "iata": "ICN", "city": "Seoul", "country": "South Korea", "country_code": "KR", "lat": 37.4633, "lng": 126.44 }
  ]
}
